city,country,latitude,longitude,date,cloudiness,humidity,max_temp,windspeed
New Norfolk,AU,-42.7826,147.0587,1651192286,100,82,67.91,4.12
Ostrovnoy,RU,68.0531,39.5131,1651192286,96,85,16.05,19.71
Metro,ID,-5.1131,105.3067,1651192286,94,82,79.45,3.24
Kirakira,SB,-10.4544,161.9205,1651192287,100,75,84.24,4.29
Mataura,NZ,-46.1927,168.8643,1651192287,3,65,58.48,0.72
Ilulissat,GL,69.2167,-51.1,1651192288,40,93,26.62,0.0
Cidreira,BR,-30.1811,-50.2056,1651192288,100,89,65.59,7.11
Fortuna,US,40.5982,-124.1573,1651192288,40,65,58.86,11.5
Harper,LR,4.375,-7.7169,1651192289,85,81,79.32,0.27
Nyurba,RU,63.2842,118.3319,1651192289,60,82,35.74,4.54
Racine,US,42.7495,-88.0751,1651192290,100,71,45.1,8.05
Yerbogachën,RU,61.2767,108.0108,1651192290,43,71,39.97,9.1
Tāndā,IN,26.55,82.65,1651192290,0,18,84.54,4.7
Hobart,AU,-42.8794,147.3294,1651192291,75,78,68.25,6.91
Baie-Saint-Paul,CA,47.4411,-70.4986,1651192291,100,84,45.45,7.74
Hong Kong,HK,22.2855,114.1577,1651192055,18,84,84.96,8.99
Komatipoort,ZA,-25.4332,31.9548,1651192292,0,93,56.05,2.77
Albany,US,42.6001,-73.9662,1651192077,13,27,46.81,1.01
Ushuaia,AR,-54.8,-68.3,1651192292,40,75,42.46,26.46
Punta Arenas,CL,-53.15,-70.9167,1651192293,40,81,42.91,24.16
Vostok,RU,46.4856,135.8833,1651192293,0,29,44.46,8.77
Isangel,VU,-19.55,169.2667,1651192294,100,88,73.51,4.61
Santander,ES,43.4647,-3.8044,1651192294,0,93,54.46,1.14
Kapaa,US,22.0752,-159.319,1651192295,40,84,80.58,13.8
Griffith,US,41.5284,-87.4237,1651192295,100,65,50.38,12.66
Busselton,AU,-33.65,115.3333,1651192296,3,65,60.17,3.49
Aytos,BG,42.7,27.25,1651192296,100,93,54.82,5.44
Norman Wells,CA,65.282,-126.8329,1651192297,75,56,41.04,10.36
Nuevo Progreso,MX,23.1667,-97.95,1651192297,17,68,79.54,5.01
Hansot,IN,21.5833,72.8,1651192297,0,49,85.55,4.99
Yellowknife,CA,62.456,-114.3525,1651192222,20,60,36.12,19.57
Nauta,PE,-4.5061,-73.5757,1651192298,100,97,73.69,1.72
Paamiut,GL,61.994,-49.6678,1651192298,100,91,36.1,12.03
George Town,MY,5.4112,100.3354,1651192299,20,94,80.53,3.44
Port Alfred,ZA,-33.5906,26.891,1651192300,4,53,66.34,8.43
Pula,HR,44.8683,13.8481,1651192300,0,47,55.96,8.05
Deputatsky,RU,69.3,139.9,1651192300,84,84,13.75,2.68
Cockburn Town,TC,21.4612,-71.1419,1651192301,40,53,75.16,6.91
Shenjiamen,CN,29.9576,122.298,1651192301,100,88,56.52,19.51
Sitka,US,57.0531,-135.33,1651192302,40,58,51.69,6.91
Hithadhoo,MV,-0.6,73.0833,1651192302,34,65,84.74,5.06
Jamestown,US,42.097,-79.2353,1651192052,0,41,40.64,4.61
Hermanus,ZA,-34.4187,19.2345,1651192303,100,91,60.19,5.86
Rikitea,PF,-23.1203,-134.9692,1651192303,0,67,77.11,18.37
Hambantota,LK,6.1241,81.1185,1651192304,20,100,73.74,3.44
Alofi,NU,-19.0595,-169.9187,1651192304,75,83,80.49,19.57
Shīeli,KZ,44.1667,66.75,1651192305,100,28,65.21,2.48
Manaus,BR,-3.1019,-60.025,1651192305,0,89,79.29,2.3
Saldanha,ZA,-33.0117,17.9442,1651192305,19,90,60.85,10.36
Dāmghān,IR,36.1683,54.348,1651192306,99,47,66.67,0.18
Wau,SS,7.7029,27.9953,1651192205,100,68,77.83,5.75
Wamba,NG,8.9333,8.6,1651192306,100,70,78.55,2.26
Bethel,US,41.3712,-73.414,1651192307,0,35,50.09,12.66
Puerto Ayora,EC,-0.7393,-90.3518,1651192307,3,89,71.94,8.01
Khatanga,RU,71.9667,102.5,1651192308,90,92,15.93,3.98
Kashin,RU,57.3592,37.6081,1651192308,41,98,30.92,4.12
Ust-Nera,RU,64.5667,143.2,1651192308,18,78,18.72,5.46
Avarua,CK,-21.2078,-159.775,1651192309,40,78,82.45,10.36
Tezu,IN,27.9167,96.1667,1651192309,8,47,81.16,0.87
Laas,IT,46.6166,10.7002,1651192310,0,64,49.08,1.68
Pevek,RU,69.7008,170.3133,1651192310,100,94,28.17,8.72
Klaksvík,FO,62.2266,-6.589,1651192310,8,79,41.92,3.11
Bredasdorp,ZA,-34.5322,20.0403,1651192311,100,95,56.41,5.79
Atuona,PF,-9.8,-139.0333,1651192311,44,75,79.23,20.09
Port Elizabeth,ZA,-33.918,25.5701,1651192311,0,74,60.31,3.44
Road Town,VG,18.4167,-64.6167,1651192312,40,69,77.04,11.5
Tursunzoda,TJ,38.5144,68.2333,1651192312,99,49,68.32,7.76
College,US,64.8569,-147.8028,1651192215,75,39,52.81,4.61
Maragogi,BR,-9.0122,-35.2225,1651192313,100,79,77.7,10.18
Kasongo-Lunda,CD,-6.4667,16.8167,1651192313,65,98,68.72,0.29
Bollnäs,SE,61.3482,16.3946,1651192313,86,74,30.97,4.25
Chokurdakh,RU,70.6333,147.9167,1651192314,53,90,6.62,4.43
Jacareacanga,BR,-6.2222,-57.7528,1651192315,100,98,73.06,2.08
Vaini,TO,-21.2,-175.2,1651192315,75,65,80.76,11.5
Pacific Grove,US,36.6177,-121.9166,1651192315,20,71,64.54,16.11
Cabo San Lucas,MX,22.8909,-109.9124,1651192214,0,28,84.61,6.91
Coyhaique,CL,-45.5752,-72.0662,1651192316,40,86,31.95,3.44
Chegdomyn,RU,51.1167,133.0167,1651192316,4,52,42.82,4.29
Suileng,CN,47.25,127.0833,1651192317,40,21,54.18,13.56
Bambous Virieux,MU,-20.3428,57.7575,1651192317,40,94,74.21,3.44
Tiznit Province,MA,29.5833,-9.5,1651192317,94,71,58.71,5.64
Tuktoyaktuk,CA,69.4541,-133.0374,1651192318,100,85,12.2,17.27
Pisco,PE,-13.7,-76.2167,1651192318,0,77,66.25,9.22
Necochea,AR,-38.5473,-58.7368,1651192319,99,55,49.3,13.76
kimparana,ML,12.8347,-4.9244,1651192319,92,50,84.65,6.91
Port Hedland,AU,-20.3167,118.5667,1651192320,75,94,71.65,10.36
Saint-Philippe,RE,-21.3585,55.7679,1651192320,41,81,74.79,12.48
Guerrero Negro,MX,27.9769,-114.0611,1651192184,0,63,63.75,21.18
Provideniya,RU,64.3833,-173.3,1651192320,75,80,32.36,20.13
Upernavik,GL,72.7868,-56.1549,1651192321,100,90,13.33,5.17
Tiksi,RU,71.6872,128.8694,1651192321,72,84,16.92,7.34
Popondetta,PG,-8.7537,148.2534,1651192322,100,56,89.51,3.38
Nara,JP,34.6851,135.8049,1651192322,100,60,67.37,9.86
Saint Anthony,US,45.0205,-93.218,1651192323,100,62,51.42,16.11
Faanui,PF,-16.4833,-151.75,1651192323,0,72,81.9,23.15
Thompson,CA,55.7435,-97.8558,1651192324,75,39,46.56,9.22
Husavik,IS,66.0449,-17.3389,1651192324,8,65,42.66,4.97
Bengkulu,ID,-3.8004,102.2655,1651192325,95,77,80.1,3.22
Krasnosel'kup,RU,65.7,82.4667,1651192325,96,95,25.86,13.56
Departamento de Maldonado,UY,-34.6667,-54.9167,1651192325,5,59,56.23,6.33
Alice Springs,AU,-23.7,133.8833,1651192230,2,24,83.75,8.05
Morant Bay,JM,17.8815,-76.4093,1651192326,34,81,80.22,8.77
Acarí,PE,-15.4311,-74.6158,1651192326,99,82,68.22,2.71
Suez,EG,29.9737,32.5263,1651192327,4,34,65.95,5.39
Huánuco,PE,-9.9329,-76.2415,1651192327,100,94,63.3,2.8
Geraldton,AU,-28.7667,114.6,1651192285,0,82,57.61,6.91
Uddevalla,SE,58.3478,11.9424,1651192328,43,86,42.22,2.01
Rio Grande,BR,-32.035,-52.0986,1651192328,0,81,51.94,9.84
Port Townsend,US,48.117,-122.7605,1651192329,75,73,55.69,8.01
Koungou,YT,-12.7336,45.2042,1651192329,20,74,82.11,18.41
Dolores,AR,-36.3132,-57.6792,1651192329,0,60,42.55,7.36
Rocha,UY,-34.4833,-54.3333,1651192330,3,63,46.76,6.8
San Vicente de Cañete,PE,-13.0751,-76.3835,1651192330,92,89,66.52,3.04
Vao,NC,-22.6667,167.4833,1651192331,100,71,74.86,21.18
Jiexiu,CN,37.0244,111.9125,1651192331,100,62,55.35,4.88
Hofn,IS,64.2539,-15.2082,1651192332,4,60,45.43,9.15
La Asuncion,VE,11.0333,-63.8628,1651192332,96,88,78.49,13.4
Lagoa,PT,39.05,-27.9833,1651192332,100,83,63.16,23.87
Cape Town,ZA,-33.9258,18.4232,1651192188,75,88,61.27,8.05
Saint George,US,37.1041,-113.5841,1651192228,0,4,82.99,20.71
Comodoro Rivadavia,AR,-45.8667,-67.5,1651192174,0,52,39.06,4.61
Iqaluit,CA,63.7506,-68.5145,1651192161,75,67,10.13,12.66
Chutove,UA,49.7104,35.1603,1651192333,100,67,46.31,7.16
Turochak,RU,52.2576,87.1224,1651192334,50,61,49.41,2.89
Chui,UY,-33.6971,-53.4616,1651192334,0,65,50.67,9.55
Naze,JP,28.3667,129.4833,1651192334,63,87,76.12,20.0
Codrington,AU,-38.2667,141.9667,1651192335,100,53,70.25,15.43
Cherskiy,RU,68.75,161.3,1651192335,99,90,20.68,10.96
Yulara,AU,-25.2406,130.9889,1651192336,100,40,73.24,14.97
Beisfjord,NO,68.3751,17.5988,1651192336,100,94,30.04,6.13
Nanortalik,GL,60.1432,-45.2371,1651192336,99,83,38.17,4.32
Jalu,LY,29.0331,21.5482,1651192337,0,13,75.92,4.29
Lethem,GY,3.3803,-59.7968,1651192337,100,75,79.38,7.76
Bar Harbor,US,44.3876,-68.2039,1651192338,100,83,41.92,14.0
Buala,SB,-8.145,159.5921,1651192338,100,72,84.9,3.96
Ixtapa,MX,20.7,-105.2,1651192338,0,78,79.23,12.66
Gizo Government Station,SB,-8.103,156.8419,1651192339,45,69,84.67,1.54
Narsaq,GL,60.9167,-46.05,1651192339,100,83,46.62,0.87
Meulaboh,ID,4.1363,96.1285,1651192340,90,87,78.82,2.66
Labuhan,ID,-6.8844,112.2051,1651192340,100,81,82.08,3.47
Makokou,GA,0.5738,12.8642,1651192340,100,99,69.75,1.23
Castro,BR,-24.7911,-50.0119,1651192341,100,91,62.53,4.07
Charleston,US,32.7766,-79.9309,1651192202,0,61,68.02,10.36
Cap Malheureux,MU,-19.9842,57.6142,1651192341,14,80,74.46,12.84
Dzaoudzi,YT,-12.7887,45.2699,1651192342,20,74,82.29,18.41
Aklavik,CA,68.2191,-135.0107,1651192342,100,81,24.31,11.03
Tasiilaq,GL,65.6145,-37.6368,1651192342,39,85,30.36,5.5
Mount Gambier,AU,-37.8333,140.7667,1651192240,75,72,66.11,12.66
Dikson,RU,73.5069,80.5464,1651192343,22,89,8.37,20.74
Praia da Vitória,PT,38.7333,-27.0667,1651192343,75,100,61.75,26.13
Saskylakh,RU,71.9167,114.0833,1651192344,100,84,21.07,9.48
Fomboni,KM,-12.28,43.7425,1651192344,100,69,81.28,19.24
Sennar,SD,13.5691,33.5672,1651192344,6,17,86.97,9.17
Paso de los Toros,UY,-32.8167,-56.5167,1651192345,0,63,47.88,8.59
Opuwo,NA,-18.0607,13.84,1651192345,93,38,72.99,2.1
Kisaran,ID,2.9845,99.6158,1651192346,53,91,78.58,3.24
Magdalena,PH,14.1999,121.429,1651192346,44,63,86.36,10.58
Shimoda,JP,34.6667,138.95,1651192347,100,82,61.16,16.64
Nome,US,64.5011,-165.4064,1651192347,100,87,40.1,17.27
East London,ZA,-33.0153,27.9116,1651192347,0,45,68.14,8.93
Andilamena,MG,-17.0167,48.5833,1651192348,53,88,59.16,4.21
Severo-Kuril'sk,RU,50.6789,156.125,1651192348,91,91,35.22,16.4
Bluff,NZ,-46.6,168.3333,1651192349,9,71,58.8,4.38
Nampula,MZ,-15.1165,39.2666,1651192349,20,88,66.15,8.05
Ribeira Grande,PT,38.5167,-28.7,1651192349,75,94,63.0,25.32
Lorengau,PG,-2.0226,147.2712,1651192350,91,67,85.48,2.01
Gillette,US,44.2911,-105.5022,1651192350,75,70,54.52,12.66
Lüderitz,NA,-26.6481,15.1594,1651192351,5,77,58.57,8.03
Aswān,EG,24.0934,32.907,1651192351,0,12,85.3,5.75
Paragominas,BR,-2.9667,-47.4833,1651192351,100,96,72.9,3.09
Vestmannaeyjar,IS,63.4427,-20.2734,1651192352,100,83,46.04,3.53
Vestmanna,FO,62.1564,-7.1664,1651192352,100,87,40.12,2.3
Kalamare,BW,-22.9337,26.5703,1651192353,0,61,55.62,3.62
Salalah,OM,17.0151,54.0924,1651192353,20,79,84.29,3.44
Maţāy,EG,28.419,30.7792,1651192353,41,17,74.32,5.48
Camden,US,39.7835,-74.9663,1651192354,0,21,53.69,3.0
Sept-Îles,CA,50.2001,-66.3821,1651192354,100,84,35.06,11.5
Bukachacha,RU,52.9833,116.9167,1651192355,100,37,37.67,11.63
Donskoye,RU,45.4552,41.9741,1651192355,100,67,55.53,12.71
Saint Paul Harbor,US,57.79,-152.4072,1651192355,70,78,40.98,14.7
Katsuura,JP,35.1333,140.3,1651192356,100,87,62.28,15.61
Ponta do Sol,PT,32.6667,-17.1,1651192356,100,81,64.71,4.47
Hilo,US,19.7297,-155.09,1651192356,40,76,80.33,14.97
Kaitangata,NZ,-46.2817,169.8464,1651192357,0,69,55.22,2.8
Vila Velha,BR,-20.3297,-40.2925,1651192357,20,92,76.95,2.3
Flinders,AU,-34.5833,150.8552,1651192257,52,77,78.06,5.99
Amahai,ID,-3.3333,128.9167,1651192358,73,72,83.16,0.54
Mahajanga,MG,-15.7167,46.3167,1651192358,20,88,75.22,2.3
Matara,LK,5.9485,80.5353,1651192359,87,83,78.98,5.06
Nānākuli,US,21.3906,-158.1547,1651192359,75,52,84.15,14.97
Kamenka,RU,51.3223,42.7678,1651192360,98,64,43.05,6.49
Shelburne,CA,44.0787,-80.2041,1651192176,0,50,36.9,6.38
Storforshei,NO,66.4043,14.5233,1651192360,20,86,26.38,3.44
Moscow,RU,55.7522,37.6156,1651192110,100,73,36.23,3.89
Faya,SA,18.3851,42.4509,1651192361,0,60,59.11,5.06
Butaritari,KI,3.0707,172.7902,1651192361,100,77,82.09,16.15
Longyearbyen,SJ,78.2186,15.6401,1651192361,20,61,6.64,16.11
Bariloche,AR,-41.1456,-71.3082,1651192362,20,74,29.95,2.3
Butembo,CD,0.15,29.2833,1651192362,100,99,58.53,2.33
Zheleznodorozhnyy,RU,55.7503,38.0042,1651192363,92,84,36.21,2.98
Boca do Acre,BR,-8.7522,-67.3978,1651192363,99,78,79.25,2.3
Barrow,US,71.2906,-156.7887,1651192187,100,78,8.62,19.57
Agüimes,ES,27.9054,-15.4461,1651192364,40,68,61.43,24.16
Roald,NO,62.5833,6.1333,1651192364,100,81,45.75,5.75
Puerto del Rosario,ES,28.5004,-13.8627,1651192364,0,68,64.15,13.8
Beloha,MG,-25.1667,45.05,1651192365,1,71,64.06,10.18
Dahuk,IQ,36.8695,42.994,1651192365,9,69,61.21,3.0
Qaqortoq,GL,60.7167,-46.0333,1651192365,100,88,37.08,1.07
Broome,US,42.2506,-75.833,1651192366,0,33,42.6,10.36
Narganá,PA,9.4428,-78.5906,1651192366,100,85,79.57,6.4
Grabouw,ZA,-34.1515,19.0151,1651192367,100,94,57.6,3.0
Qaanaaq,GL,77.484,-69.3632,1651192367,94,91,20.88,8.01
Grindavik,IS,63.8424,-22.4338,1651192367,100,93,46.87,11.5
Berezhany,UA,49.45,24.9333,1651192368,27,82,41.67,3.2
San Fernando del Valle de Catamarca,AR,-28.4696,-65.7852,1651192368,2,51,63.59,8.9
Berlevåg,NO,70.8578,29.0864,1651192369,100,61,21.0,22.12
Goderich,CA,43.7501,-81.7165,1651192369,5,64,37.9,10.36
Umluj,SA,25.0213,37.2685,1651192369,0,59,79.59,9.57
Tartous,SY,34.889,35.8866,1651192370,0,69,64.2,1.95
Merauke,ID,-8.4667,140.3333,1651192370,100,73,84.16,8.41
Tooele,US,40.5308,-112.2983,1651192265,40,45,67.96,14.97
Ericeira,PT,38.9627,-9.4156,1651192371,3,89,61.77,12.28
Quatre Cocos,MU,-20.2078,57.7625,1651192371,19,82,74.08,8.25
Arraial do Cabo,BR,-22.9661,-42.0278,1651192372,2,87,75.6,19.46
Libreville,GA,0.3925,9.4537,1651192372,20,74,82.42,5.75
Kudat,MY,6.8837,116.8477,1651192373,20,89,80.53,3.44
Vila Franca do Campo,PT,37.7167,-25.4333,1651192373,100,94,64.2,28.27
Laguna,US,38.421,-121.4238,1651192374,20,37,73.94,5.99
Peniche,PT,39.3558,-9.3811,1651192374,5,92,58.1,10.42
Ketchikan,US,55.3422,-131.6461,1651192375,40,54,54.07,11.5
Tilichiki,RU,60.4667,166.1,1651192375,96,98,32.05,8.05
Krasnyy Chikoy,RU,50.3643,108.7512,1651192376,0,33,38.79,10.71
Chiriguaná,CO,9.3624,-73.6031,1651192376,100,92,76.5,1.74
Lerwick,GB,60.1545,-1.1494,1651192377,90,83,46.4,3.67
Esperance,AU,-33.8667,121.9,1651192377,100,68,53.44,11.34
Nova Olímpia,BR,-14.7972,-57.2881,1651192378,59,60,77.92,2.71
Paraná,AR,-31.732,-60.5238,1651192184,0,56,58.57,8.03
Ust-Tsilma,RU,65.441,52.1498,1651192378,34,85,23.54,7.65
Emba,KZ,48.8264,58.1442,1651192379,3,39,54.14,4.29
Carnarvon,AU,-24.8667,113.6333,1651192379,0,68,64.47,18.41
Canchungo,GW,12.0672,-16.0333,1651192380,10,74,71.64,5.95
Tigil',RU,57.8,158.6667,1651192380,4,71,40.48,13.06
Mar del Plata,AR,-38.0023,-57.5575,1651192150,20,85,47.88,13.0
Kailua,US,21.4022,-157.7394,1651192365,40,69,84.18,11.5
Linhai,CN,28.85,121.1167,1651192381,100,75,63.93,5.59
The Pas,CA,53.8251,-101.2541,1651192381,100,57,44.62,11.5
Mossamedes,AO,-15.1961,12.1522,1651192382,4,70,73.13,3.44
North Bend,US,43.4065,-124.2243,1651192382,100,82,56.25,16.11
Tyukhtet,RU,56.5389,89.3011,1651192383,100,59,54.95,14.41
Yar-Sale,RU,66.8333,70.8333,1651192384,100,86,14.9,5.91
Meylan,FR,45.2199,5.7901,1651192384,4,66,58.95,3.11
Wheatley,GB,51.7473,-1.1394,1651192385,40,86,47.61,3.44
Buchanan,LR,5.8808,-10.0467,1651192385,100,83,79.3,3.09
Grand-Santi,GF,4.25,-54.3833,1651192386,96,99,73.54,2.64
Champerico,GT,14.3,-91.9167,1651192386,5,64,84.74,4.23
Beaverlodge,CA,55.2166,-119.4361,1651192227,100,97,34.95,14.38
Mehamn,NO,71.0357,27.8492,1651192387,100,72,25.86,18.48
Port Hardy,CA,50.6996,-127.4199,1651192387,75,62,51.98,5.75
Oktyabr'skoye,RU,43.0645,44.7417,1651192388,100,88,55.54,6.71
Lubāna,LV,56.9,26.7167,1651192388,100,85,34.97,7.11
Paranaíba,BR,-19.6772,-51.1908,1651192389,25,45,76.26,4.12
Forsytheganj,BY,52.6333,29.7333,1651192389,10,80,36.86,2.08
Son La,VN,21.3167,103.9,1651192389,94,75,79.18,3.58
Salym,RU,60.0625,71.4789,1651192390,100,90,49.55,8.57
Nikolskoye,RU,59.7035,30.7861,1651192390,100,87,35.71,8.41
Cibitoke Province,BI,-2.8833,29.25,1651192391,100,97,61.59,2.93
Fairbanks,US,64.8378,-147.7164,1651192197,75,38,52.83,4.61
Ewo,CG,-0.8725,14.8206,1651192391,94,91,72.82,2.08
Wanning,CN,18.8003,110.3967,1651192392,100,79,83.71,5.03
Atherton,GB,53.5237,-2.4935,1651192392,86,74,48.22,1.99
Praia,CV,14.9215,-23.5087,1651192392,20,73,70.34,19.57
Oranjemund,NA,-28.55,16.4333,1651192393,0,95,54.19,1.23
Sur,OM,22.5667,59.5289,1651192394,86,40,87.58,8.84
Sangīn,AF,32.0728,64.8359,1651192394,1,24,76.23,2.35
Ivanteyevka,RU,55.9711,37.9208,1651192394,30,91,36.34,3.11
Dorchester,US,33.1002,-80.3831,1651192395,0,45,68.2,0.0
Palagiano,IT,40.5782,17.0374,1651192395,50,65,59.83,18.86
Malindi,KE,-3.2175,40.1191,1651192396,70,87,77.67,11.86
Marrakesh,MA,31.6315,-8.0083,1651192160,40,72,59.07,9.22
Novaya Ladoga,RU,60.1025,32.3019,1651192396,100,65,31.96,8.88
Shakawe,BW,-18.3667,21.85,1651192397,0,54,59.92,6.38
Arlit,NE,18.7369,7.3853,1651192397,48,8,77.86,7.0
Mbanza-Ngungu,CD,-5.25,14.8667,1651192397,77,96,67.14,1.97
Kathu,TH,7.9178,98.3332,1651192398,38,72,89.74,7.56
Lebu,CL,-37.6167,-73.65,1651192398,2,80,49.44,16.08
Mahébourg,MU,-20.4081,57.7,1651192399,40,94,74.25,3.44
Adrar,MR,20.5022,-10.0711,1651192399,0,15,73.47,8.99
Bathsheba,BB,13.2167,-59.5167,1651192399,40,83,81.21,14.97
Juneau,US,58.3019,-134.4197,1651192400,40,85,50.0,12.66
Olafsvik,IS,64.8945,-23.7142,1651192400,100,94,45.63,9.46
Port Lincoln,AU,-34.7333,135.8667,1651192400,100,66,66.13,13.69
Poplar Bluff,US,36.757,-90.3929,1651192170,100,72,69.58,4.61
Portland,US,45.5234,-122.6762,1651192111,100,78,55.99,4.61
Mana,GF,5.6592,-53.7767,1651192401,77,87,78.21,10.67
Mackay,AU,-21.15,149.2,1651192237,75,78,81.68,17.27
Lakatoro,VU,-16.0999,167.4164,1651192402,98,78,82.78,7.54
Aguadilla,PR,18.4275,-67.1541,1651192402,100,69,77.36,13.8
Sal Rei,CV,16.1833,-22.9167,1651192403,3,82,69.89,17.43
Torbay,CA,47.6666,-52.7314,1651192403,100,95,36.88,8.05
Santa Rosa,PH,14.3122,121.1114,1651192403,100,72,88.09,14.61
Yuanli,TW,24.4397,120.6535,1651192404,75,89,91.24,5.75
Zhanakorgan,KZ,43.9098,67.2495,1651192405,90,26,65.68,1.45
Pavlovsk,RU,50.4578,40.1081,1651192405,72,81,45.99,3.67
Kinshasa,CD,-4.3246,15.3215,1651192406,40,94,77.32,4.61
Trairi,BR,-3.2778,-39.2689,1651192406,75,91,76.78,6.29
Dubrovka,RU,53.6907,33.5071,1651192407,7,86,32.59,1.28
Ambulu,ID,-8.345,113.6058,1651192407,48,74,81.23,1.92
Clyde River,CA,70.4692,-68.5914,1651192407,100,85,3.43,6.91
Gemeente Druten,NL,51.8833,5.6,1651192408,100,77,47.1,7.0
Cayenne,GF,4.9333,-52.3333,1651192206,75,1,82.09,4.61
Suntar,RU,62.1444,117.6319,1651192408,100,70,38.46,3.76
Jinxiang,CN,27.4327,120.6062,1651192409,100,93,62.33,16.06
Kargasok,RU,59.0556,80.8572,1651192409,100,84,55.72,11.56
Osijek,HR,45.5511,18.6939,1651192410,40,93,54.41,3.44
Magdagachi,RU,53.45,125.8,1651192410,100,25,40.21,6.8
Chipinge,ZW,-20.1883,32.6236,1651192410,97,62,58.33,0.45
Galveston,US,29.3669,-94.9669,1651192411,0,80,76.17,14.97
Oga,IT,46.4631,10.347,1651192411,4,83,42.69,0.56
Pangnirtung,CA,66.1451,-65.7125,1651192412,100,81,17.33,9.89
Selma,US,36.5708,-119.6121,1651192123,0,32,74.08,15.41
Killybegs,IE,54.6333,-8.45,1651192412,25,86,46.27,4.41
Tuatapere,NZ,-46.1333,167.6833,1651192413,100,68,56.95,2.37
São Filipe,CV,14.8961,-24.4956,1651192413,5,72,71.37,8.08
Gusinoye Ozero,RU,51.1144,106.2614,1651192413,6,34,42.22,4.74
Herat Province,AF,34.5,62.0,1651192414,0,41,67.62,9.06
Waitati,NZ,-45.75,170.5667,1651192414,0,67,57.79,3.4
Stawell,AU,-37.05,142.7667,1651192415,100,67,65.64,13.33
Litovko,RU,49.2361,135.1742,1651192415,14,30,51.37,11.52
Havøysund,NO,70.9963,24.6622,1651192416,100,67,26.83,21.3
Dudinka,RU,69.4058,86.1778,1651192416,100,93,16.63,6.6
Qinhuangdao,CN,39.9317,119.5883,1651192200,1,49,53.19,4.81
Molochnoye,RU,59.2917,39.6787,1651192417,55,62,27.55,7.07
Kruisfontein,ZA,-34.0033,24.7314,1651192417,7,47,60.98,8.39
Ouro Branco,BR,-20.5208,-43.6919,1651192418,0,87,59.94,1.83
Kaeo,NZ,-35.1,173.7833,1651192418,23,73,67.32,9.44
La Santisima Trinidad,BO,-14.8333,-64.9,1651192418,51,77,76.87,3.51
Darhan,MN,49.4867,105.9228,1651192419,0,29,39.88,4.03
Zhangye,CN,38.9342,100.4517,1651192419,100,23,49.8,14.79
Kapiri Mposhi,ZM,-13.9652,28.6809,1651192420,99,87,58.55,5.26
Iquique,CL,-20.2208,-70.1431,1651192298,64,78,64.44,0.63
Constitución,CL,-35.3333,-72.4167,1651192256,4,67,50.36,6.87
Coalinga,US,36.1397,-120.3602,1651192420,0,41,71.85,15.19
Xichang,CN,27.8964,102.2634,1651192421,6,68,64.29,1.45
Niamey,NE,13.5137,2.1098,1651192421,69,12,89.89,3.44
Kayerkan,RU,69.3497,87.7602,1651192422,100,78,15.53,4.92
Morondava,MG,-20.2833,44.2833,1651192422,0,61,72.72,11.43
Moñitos,CO,8.25,-76.05,1651192422,100,96,76.08,4.41
Kalmunai,LK,7.4167,81.8167,1651192423,75,87,79.84,5.5
Kununurra,AU,-15.7667,128.7333,1651192423,100,70,85.98,2.3
Leningradskiy,RU,69.3833,178.4167,1651192424,100,89,25.0,1.83
Severo-Yeniseyskiy,RU,60.3725,93.0408,1651192425,100,95,42.26,9.22
Anjozorobe,MG,-18.4,47.8667,1651192426,36,89,53.94,6.35
Vikhorevka,RU,56.1201,101.1636,1651192426,100,89,42.39,3.27
Banda Aceh,ID,5.5577,95.3222,1651192426,100,77,82.4,6.87
Vista Hermosa,MX,19.5167,-99.2167,1651192427,75,34,76.39,6.91
Hamilton,US,39.1834,-84.5333,1651192201,100,52,60.44,8.05
Palm Coast,US,29.585,-81.2078,1651192244,0,63,73.99,10.0
Hasaki,JP,35.7333,140.8333,1651192427,100,78,63.0,16.46
Lowestoft,GB,52.4752,1.7516,1651192428,100,79,46.02,9.73
Razlog,BG,41.8863,23.4671,1651192428,98,96,50.72,1.79
Ust'-Tarka,RU,55.5672,75.705,1651192429,100,47,60.75,12.48
Grand Gaube,MU,-20.0064,57.6608,1651192429,11,80,74.37,12.91
Yeppoon,AU,-23.1333,150.7333,1651192430,30,75,76.78,16.49
Urmary,RU,55.6789,47.944,1651192430,13,74,30.45,2.75
Majene,ID,-3.5403,118.9707,1651192430,31,71,84.51,5.41
Sørland,NO,67.667,12.6934,1651192431,100,58,35.15,15.88
Aktash,RU,50.3,87.7333,1651192431,60,58,32.54,3.02
Pāliyād,IN,22.25,71.5667,1651192432,0,45,84.25,12.62
Labuan,MY,5.2767,115.2417,1651192432,20,83,82.76,2.3
Plettenberg Bay,ZA,-34.0527,23.3716,1651192433,5,69,60.13,7.16
Okhotsk,RU,59.3833,143.3,1651192433,100,71,32.65,17.11
Port Augusta,AU,-32.5,137.7667,1651192433,100,53,70.45,5.79
Sibolga,ID,1.7427,98.7792,1651192434,92,84,79.56,1.77
Ziway,ET,7.9333,38.7167,1651192434,66,77,64.8,1.95
Beroroha,MG,-21.6667,45.1667,1651192435,0,77,65.03,4.47
Xining,CN,36.6167,101.7667,1651192435,100,83,42.1,4.65
Tarazá,CO,7.5836,-75.4007,1651192435,100,97,74.88,1.79
Dingle,PH,10.9995,122.6711,1651192436,100,74,83.91,10.02
Sakakah,SA,29.9697,40.2064,1651192436,0,49,65.77,5.64
Isla Vista,US,34.4133,-119.861,1651192361,0,52,70.79,5.75
Apomu,NG,7.3333,4.1833,1651192437,29,93,73.45,1.5
Mayo,US,38.8876,-76.5119,1651192437,0,40,56.28,5.75
Airai,TL,-8.9266,125.4092,1651192438,70,51,71.82,2.39
Kavieng,PG,-2.5744,150.7967,1651192439,46,64,86.11,7.14
Karratha,AU,-20.7377,116.8463,1651192439,100,76,73.74,14.65
Itarema,BR,-2.9248,-39.9167,1651192439,12,90,76.41,7.58
Waipawa,NZ,-41.4122,175.5153,1651192440,6,57,57.42,6.91
Puerto Colombia,CO,10.9878,-74.9547,1651192441,100,83,77.09,21.7
Ekhabi,RU,53.5102,142.9671,1651192441,100,98,31.24,19.93
Kavaratti,IN,10.5669,72.642,1651192442,70,75,84.69,6.29
Palana,RU,59.1167,159.9667,1651192442,5,71,34.75,18.99
Makakilo City,US,21.3469,-158.0858,1651192443,75,53,82.72,14.97
Ossora,RU,59.2353,163.0719,1651192443,100,99,31.62,15.14
Corinth,GR,37.9407,22.9573,1651192444,77,59,60.42,4.54
Coos Bay,US,43.3665,-124.2179,1651192444,100,84,56.32,16.11
San Patricio,US,28.017,-97.5169,1651192445,30,77,80.55,14.65
Aksu,CN,41.1231,80.2644,1651192445,0,56,53.78,10.38
Bathurst,AU,-33.4166,149.5806,1651192155,86,99,63.82,6.02
Datong,CN,40.0936,113.2914,1651192446,100,40,54.95,7.99
Kontagora,NG,10.3999,5.4695,1651192446,100,56,80.22,3.6
Shingū,JP,33.7333,135.9833,1651192447,100,96,62.13,9.62
Amapá,BR,1.0,-52.0,1651192447,100,99,72.86,2.71
Purpe,RU,64.4803,76.6897,1651192448,100,96,24.85,13.62
Saint-Augustin,CA,51.226,-58.6502,1651192448,100,98,34.14,16.4
Craig,US,40.5153,-107.5464,1651192448,0,17,67.95,13.8
Ndélé,CF,8.4109,20.6473,1651192449,100,69,73.74,5.1
Belyy Yar,RU,53.6039,91.3903,1651192449,0,52,42.69,6.71
Sant Pere de Ribes,ES,41.2667,1.7667,1651192450,91,69,65.28,3.76
Igarka,RU,67.4667,86.5833,1651192450,100,84,24.48,13.49
Mweka,CD,-4.85,21.5667,1651192451,100,100,67.98,1.83
Epe,NG,6.5841,3.9834,1651192451,77,86,77.38,1.52
Hobyo,SO,5.3505,48.5268,1651192452,23,75,83.14,7.7
Kulachi,PK,31.9286,70.4592,1651192452,70,19,86.59,8.75
Monchegorsk,RU,67.9397,32.8739,1651192452,100,83,17.24,5.1
Broken Hill,AU,-31.95,141.4333,1651192453,99,68,67.71,9.22
Bahía Blanca,AR,-38.7196,-62.2724,1651192209,71,44,45.12,6.49
Abu Dhabi,AE,24.4667,54.3667,1651192279,0,66,82.51,5.75
Córdoba,AR,-31.4135,-64.1811,1651192454,0,49,52.75,3.44
Lata,PT,40.1629,-8.3327,1651192454,33,86,56.07,3.76
Dukat,RU,62.55,155.55,1651192455,100,90,27.7,11.43
Turukhansk,RU,65.8167,87.9833,1651192455,100,98,33.48,6.35
Moussoro,TD,13.6408,16.4901,1651192455,100,29,87.78,8.93
Māngrol,IN,21.1167,70.1167,1651192456,0,76,81.54,10.94
Panlaitan,PH,12.1191,119.8486,1651192456,100,74,85.26,19.06
San Isidro,PE,-12.1167,-77.05,1651192457,75,72,72.01,10.36
Miraflores,MX,19.2167,-98.8083,1651192457,83,51,75.85,1.79
Bestöbe,KZ,52.4994,73.0975,1651192457,100,51,58.46,9.51
Heiligenhafen,DE,54.3667,10.9833,1651192458,11,87,37.74,9.75
Cabedelo,BR,-6.9811,-34.8339,1651192458,96,83,77.67,11.1
San Cristobal,VE,7.7669,-72.225,1651192459,99,93,73.58,0.51
Rumonge,BI,-3.9736,29.4386,1651192459,88,86,70.59,2.44
Porbandar,IN,21.6422,69.6093,1651192460,0,77,81.99,8.03
Aykhal,RU,66.0,111.5,1651192460,29,91,33.12,9.28
Bilibino,RU,68.0546,166.4372,1651192460,100,92,31.12,1.66
Thinadhoo,MV,0.5333,72.9333,1651192461,65,67,85.05,7.78
Aranda de Duero,ES,41.6704,-3.6892,1651192461,15,88,47.25,4.83
Ōhara,JP,35.25,140.3833,1651192461,100,87,61.61,15.41
Castelo do Piauí,BR,-5.3222,-41.5525,1651192462,100,84,75.18,2.89
Qarchī Gak,AF,37.04,66.7889,1651192462,100,30,80.01,13.53
Walvis Bay,NA,-22.9575,14.5053,1651192463,1,52,67.15,4.61
Panabá,MX,21.2833,-88.2667,1651192463,5,73,76.51,10.13
Te Anau,NZ,-45.4167,167.7167,1651192463,100,66,58.3,2.1
High Level,CA,58.5169,-117.136,1651192464,75,53,44.71,24.16
Stoughton,US,42.1251,-71.1023,1651192464,65,38,48.63,5.99
Gisborne,NZ,-38.6533,178.0042,1651192465,99,75,58.03,4.99
Bafoulabé,ML,13.8065,-10.8321,1651192465,20,19,91.54,3.33
Andra,RU,62.5147,65.8878,1651192465,97,94,28.38,9.89
Ranong,TH,9.9658,98.6348,1651192466,100,80,82.49,0.54
Ninghai,CN,29.2892,121.4247,1651192466,100,91,57.4,9.98
Kiryat Gat,IL,31.61,34.7642,1651192466,0,57,69.4,3.33
Iranshahr,IR,27.2025,60.6848,1651192467,0,27,79.14,4.61
Tabou,CI,4.423,-7.3528,1651192467,98,79,79.74,1.19
Cascais,PT,38.6979,-9.4215,1651192468,2,70,61.93,28.99
Richards Bay,ZA,-28.783,32.0377,1651192414,0,88,62.02,9.57
City of San Pedro,PH,14.35,121.0167,1651192238,20,71,87.31,8.05
Yangi Marg`ilon,UZ,40.4272,71.7189,1651192468,100,67,63.32,2.3
Coquimbo,CL,-29.9533,-71.3436,1651192469,0,77,60.53,3.44
Kalemie,CD,-5.9475,29.1947,1651192469,87,87,70.77,6.98
Guarapari,BR,-20.6667,-40.4975,1651192389,0,89,75.88,7.9
Roebourne,AU,-20.7833,117.1333,1651192470,100,77,73.56,13.42
Zhaotong,CN,27.3167,103.7167,1651192470,5,63,60.17,1.3
Aitape,PG,-3.1374,142.3475,1651192470,99,64,86.04,2.51
Balakhta,RU,55.38,91.6,1651192471,100,56,50.29,6.69
Ucluelet,CA,48.9329,-125.5528,1651192471,100,76,53.1,1.01
Barcelona,ES,41.3888,2.159,1651192212,0,66,64.54,2.3
Nakhon Thai,TH,17.1006,100.8374,1651192472,100,76,81.1,1.07
Melfort,CA,52.8667,-104.6177,1651192472,25,54,53.73,5.32
Lubango,AO,-14.9172,13.4925,1651192472,67,66,61.66,4.43
Porto-Novo,BJ,6.4965,2.6036,1651192473,98,78,78.62,1.95
Kalianget,ID,-7.05,113.9333,1651192473,28,76,83.93,6.76
Sistranda,NO,63.7256,8.834,1651192473,100,68,37.36,13.33
Fare,PF,-16.7,-151.0167,1651192474,0,70,81.93,22.73
Tegul'det,RU,57.3064,88.1667,1651192474,100,78,52.99,10.38
Micheweni,TZ,-4.9667,39.8333,1651192475,73,87,77.45,12.68
Ivanava,BY,52.1451,25.5365,1651192475,15,81,36.95,3.09
Mosquera,CO,4.7059,-74.2302,1651192475,75,100,53.69,2.3
Berbera,SO,10.4396,45.0143,1651192476,28,81,83.17,1.95
Los Llanos de Aridane,ES,28.6585,-17.9182,1651192476,100,92,62.35,12.66
Ahipara,NZ,-35.1667,173.1667,1651192477,23,57,68.0,6.62
Vallenar,CL,-28.5708,-70.7581,1651192477,0,39,66.51,3.31
Zhuhai,CN,22.2769,113.5678,1651192477,40,89,85.86,8.05
Bologoye,RU,57.8799,34.1068,1651192478,94,74,28.53,4.85
Patna,IN,25.6,85.1167,1651192478,40,89,80.53,6.91
Séguéla,CI,7.9611,-6.6731,1651192478,100,94,71.98,3.56
Staryy Nadym,RU,65.6118,72.6842,1651192479,100,91,22.51,11.03
Byron Bay,AU,-28.65,153.6167,1651192479,54,83,75.09,4.41
Maniitsoq,GL,65.4167,-52.9,1651192480,100,99,31.3,10.02
Kahului,US,20.8947,-156.47,1651192480,20,59,87.82,17.27
Lavrentiya,RU,65.5833,-171.0,1651192481,99,92,30.74,11.7
Tulum,MX,20.2167,-87.4667,1651192206,5,78,76.19,6.38
Sangar,RU,63.9242,127.4739,1651192481,17,78,27.61,3.2
Raudeberg,NO,61.9875,5.1352,1651192481,100,86,41.67,3.74
Srednekolymsk,RU,67.45,153.6833,1651192482,98,83,21.83,7.23
Katobu,ID,-4.9408,122.5276,1651192482,80,72,83.8,3.74
Derzhavīnsk,KZ,51.1,66.3167,1651192482,100,46,58.66,8.46
Verāval,IN,20.9,70.3667,1651192483,0,75,81.41,11.74
Talnakh,RU,69.4865,88.3972,1651192483,100,81,16.21,3.04
Tortosa,ES,40.8125,0.5216,1651192484,29,53,59.9,5.79
Dubovyy Umët,RU,52.9763,50.2857,1651192484,95,77,38.32,5.46
Arrondissement de Saint-Denis,FR,48.9167,2.3333,1651192484,0,64,58.14,10.36
Muros,ES,42.7762,-9.0603,1651192485,42,83,56.08,9.1
Namatanai,PG,-3.6667,152.4333,1651192485,100,63,86.16,5.1
Dali,CN,25.7,100.1833,1651192486,0,42,66.99,4.45
Rosarito,MX,32.3333,-117.0333,1651192486,8,71,66.42,9.62
La Ronge,CA,55.1001,-105.2842,1651192486,75,46,50.25,6.91
Toguchin,RU,55.2353,84.3858,1651192400,99,66,55.83,14.0
San Policarpo,PH,12.1791,125.5072,1651192487,26,79,82.56,10.09
Falmouth,GB,50.1544,-5.0711,1651192487,40,81,49.1,4.61
Olinda,BR,-8.0089,-34.8553,1651192487,75,69,82.13,9.22
Hays,US,30.0502,-98.0336,1651192488,89,59,80.82,11.01
Bereda,ES,43.2686,-7.5406,1651192488,42,100,46.58,1.45
Tessalit,ML,20.1986,1.0114,1651192489,0,11,80.08,5.99
Upata,VE,8.0086,-62.3989,1651192489,97,88,74.19,3.76
Phan Thiet,VN,10.9333,108.1,1651192489,100,92,77.0,10.27
Havre-St-Pierre,CA,50.2334,-63.5986,1651192490,100,87,35.96,16.11
Montgomery,US,39.1501,-77.1997,1651192208,0,37,54.82,5.75
Borba,BR,-4.3878,-59.5939,1651192490,100,98,74.55,2.82
Portree,GB,57.4129,-6.1942,1651192491,16,82,43.52,0.98
Mitsamiouli,KM,-11.3847,43.2844,1651192491,71,75,80.87,20.56
Vágur,FO,61.4732,-6.8119,1651192491,10,77,44.08,3.18
Kotka,FI,60.4664,26.9458,1651192492,100,87,33.06,12.5
Omboué,GA,-1.5746,9.2618,1651192492,76,90,77.43,3.76
Jagatsinghapur,IN,20.2667,86.1667,1651192492,70,84,82.76,8.05
Maroantsetra,MG,-15.4333,49.7333,1651192493,88,84,73.29,7.78
Tarauacá,BR,-8.1614,-70.7656,1651192493,98,93,75.06,1.5
Lamu,KE,-2.2717,40.902,1651192494,95,80,80.82,10.83
Chunan,CN,24.5277,110.548,1651192494,100,95,66.56,5.21
Ishigaki,JP,24.3448,124.1572,1651192494,20,89,84.33,13.8
Hervey Bay,AU,-25.2986,152.8535,1651192274,97,71,79.02,5.01
Mountain Home,US,43.133,-115.6912,1651192495,75,100,45.88,25.32
Den Helder,NL,52.9599,4.7593,1651192495,100,78,46.38,13.0
Katete,UG,-0.7818,29.7544,1651192496,100,99,62.24,1.97
Sirte,LY,31.2089,16.5887,1651192496,0,86,63.28,15.21
São Miguel do Araguaia,BR,-13.275,-50.1628,1651192247,0,62,74.55,4.43
Port-Cartier,CA,50.0334,-66.8654,1651192496,100,76,34.75,15.59
Avera,US,33.194,-82.5271,1651192497,4,49,67.51,4.54
Vanimo,PG,-2.6741,141.3028,1651192497,100,62,86.85,1.1
Gambēla,ET,8.25,34.5833,1651192498,100,85,72.99,2.17
Burns Lake,CA,54.2331,-125.7533,1651192498,100,55,45.82,8.63
Isabela,PH,6.7085,121.9711,1651192498,100,85,86.05,5.91
West Bay,KY,19.3667,-81.4167,1651192499,20,80,80.01,6.91
Vryburg,ZA,-26.9566,24.7284,1651192499,98,66,56.28,11.52
